[{"zip":"10002","residential":"YES","permstatus":"ISSUED","filestatus":"RENEWAL","filedate":"1/15/2015","issuedate":"1/15/2015","expdate":"4/1/2015","busname":"GRAND BUILDER CONTRACTING","address":"145 LUDLOW ST","lon":-73.9883,"lat":40.7207},{"zip":"10002","residential":"","permstatus":"ISSUED","filestatus":"RENEWAL","filedate":"1/20/2015","issuedate":"1/20/2015","expdate":"11/7/2015","busname":"BCRE SERVICES LLC","address":"180 ORCHARD STREET","lon":-73.9881,"lat":40.7217},{"zip":"10002","residential":"YES","permstatus":"ISSUED","filestatus":"RENEWAL","filedate":"1/16/2015","issuedate":"1/23/2015","expdate":"8/20/2015","busname":"CENTRAL CONSTRUCTION MANA","address":"179 SUFFOLK STREET","lon":-73.9847,"lat":40.7216},{"zip":"10002","residential":"","permstatus":"ISSUED","filestatus":"RENEWAL","filedate":"12/11/2014","issuedate":"1/28/2015","expdate":"2/26/2015","busname":"SUN SUN CONTRACTING INC","address":"88 ALLEN STREET","lon":-73.9908,"lat":40.7181},{"zip":"10002","residential":"YES","permstatus":"RE-ISSUED","filestatus":"RENEWAL","filedate":"2/10/2015","issuedate":"2/10/2015","expdate":"2/26/2015","busname":"SUN SUN CONTRACTING INC","address":"183 EAST BROADWAY","lon":-73.9891,"lat":40.7137},{"zip":"10002","residential":"YES","permstatus":"ISSUED","filestatus":"RENEWAL","filedate":"2/19/2015","issuedate":"2/19/2015","expdate":"4/7/2015","busname":"R & S CONSTRUCTION OF NY","address":"53 HESTER STREET","lon":-73.99,"lat":40.7158},{"zip":"10002","residential":"YES","permstatus":"ISSUED","filestatus":"RENEWAL","filedate":"2/20/2015","issuedate":"2/20/2015","expdate":"2/20/2016","busname":"BRITT REALTY LLC","address":"100 NORFOLK STREET","lon":-73.987,"lat":40.7186},{"zip":"10002","residential":"YES","permstatus":"ISSUED","filestatus":"RENEWAL","filedate":"3/5/2015","issuedate":"3/5/2015","expdate":"2/23/2016","busname":"SUN SUN CONTRACTING INC","address":"183 EAST BROADWAY","lon":-73.9891,"lat":40.7137},{"zip":"10002","residential":"","permstatus":"ISSUED","filestatus":"INITIAL","filedate":"3/5/2015","issuedate":"3/5/2015","expdate":"3/4/2016","busname":"ANTHONY T. RINALDI LLC","address":"189 BOWERY","lon":-73.9935,"lat":40.7206},{"zip":"10002","residential":"","permstatus":"ISSUED","filestatus":"RENEWAL","filedate":"3/5/2015","issuedate":"3/5/2015","expdate":"2/23/2016","busname":"SUN SUN CONTRACTING INC","address":"88 ALLEN STREET","lon":-73.9908,"lat":40.7181},{"zip":"10002","residential":"","permstatus":"ISSUED","filestatus":"RENEWAL","filedate":"3/19/2015","issuedate":"3/19/2015","expdate":"3/18/2016","busname":"FOREMOST CONTRACTING & BU","address":"60 CANAL ST","lon":-73.9925,"lat":40.7162},{"zip":"10002","residential":"YES","permstatus":"ISSUED","filestatus":"RENEWAL","filedate":"4/2/2015","issuedate":"4/2/2015","expdate":"4/2/2016","busname":"R & S CONSTRUCTION OF NY","address":"53 HESTER STREET","lon":-73.99,"lat":40.7158},{"zip":"10002","residential":"","permstatus":"ISSUED","filestatus":"RENEWAL","filedate":"4/2/2015","issuedate":"4/2/2015","expdate":"4/2/2016","busname":"R & S CONSTRUCTION OF NY","address":"107 EAST BROADWAY","lon":-73.993,"lat":40.7136},{"zip":"10002","residential":"YES","permstatus":"ISSUED","filestatus":"RENEWAL","filedate":"4/3/2015","issuedate":"4/3/2015","expdate":"1/16/2016","busname":"GRAND BUILDER CONTRACTING","address":"145 LUDLOW ST","lon":-73.9883,"lat":40.7207},{"zip":"10002","residential":"YES","permstatus":"ISSUED","filestatus":"RENEWAL","filedate":"5/11/2015","issuedate":"5/11/2015","expdate":"11/7/2015","busname":"JOY CONSTRUCTION CORP","address":"331 EAST HOUSTON STREET","lon":-73.9825,"lat":40.7208},{"zip":"10002","residential":"YES","permstatus":"ISSUED","filestatus":"RENEWAL","filedate":"5/13/2015","issuedate":"5/13/2015","expdate":"2/26/2016","busname":"RAY BUILDERS INC","address":"155 ATTORNEY STREET","lon":-73.9836,"lat":40.7206},{"zip":"10002","residential":"","permstatus":"ISSUED","filestatus":"RENEWAL","filedate":"5/6/2015","issuedate":"5/21/2015","expdate":"5/20/2016","busname":"TRITON CONSTRUCTION CO.,        ","address":"215 CHRYSTIE STREET","lon":-73.9916,"lat":40.7225},{"zip":"10002","residential":"","permstatus":"ISSUED","filestatus":"RENEWAL","filedate":"5/22/2015","issuedate":"5/22/2015","expdate":"11/23/2015","busname":"98 CONSTRUCTION INC","address":"42 ALLEN STREET","lon":-73.9916,"lat":40.7163},{"zip":"10002","residential":"","permstatus":"ISSUED","filestatus":"RENEWAL","filedate":"5/28/2015","issuedate":"5/28/2015","expdate":"10/10/2015","busname":"KINGS STAR CONSTRUCTION C","address":"172 ELDRIDGE STREET","lon":-73.9907,"lat":40.7201},{"zip":"10002","residential":"YES","permstatus":"ISSUED","filestatus":"INITIAL","filedate":"5/29/2015","issuedate":"5/29/2015","expdate":"7/7/2015","busname":"LEND LEASE (US) CONSTRUCT","address":"250 SOUTH STREET","lon":-73.9912,"lat":40.7104},{"zip":"10002","residential":"","permstatus":"ISSUED","filestatus":"RENEWAL","filedate":"5/28/2015","issuedate":"6/1/2015","expdate":"11/7/2015","busname":"BCRE SERVICES LLC","address":"180 ORCHARD STREET","lon":-73.9881,"lat":40.7217},{"zip":"10002","residential":"YES","permstatus":"ISSUED","filestatus":"INITIAL","filedate":"6/8/2015","issuedate":"6/8/2015","expdate":"8/14/2015","busname":"ESSEX CROSSING BUILDERS L","address":"145 CLINTON STREET","lon":-73.9863,"lat":40.7167},{"zip":"10002","residential":"YES","permstatus":"ISSUED","filestatus":"INITIAL","filedate":"6/8/2015","issuedate":"6/8/2015","expdate":"7/7/2015","busname":"MONADNOCK CONSTRUCTION IN","address":"227 CHERRY STREET","lon":-73.9913,"lat":40.7106},{"zip":"10002","residential":"YES","permstatus":"ISSUED","filestatus":"INITIAL","filedate":"6/8/2015","issuedate":"6/8/2015","expdate":"4/1/2016","busname":"L&M BUILDERS GROUP LLC","address":"115 DELANCEY STREET","lon":-73.9881,"lat":40.7183},{"zip":"10002","residential":"YES","permstatus":"ISSUED","filestatus":"INITIAL","filedate":"6/5/2015","issuedate":"6/9/2015","expdate":"11/29/2015","busname":"TRITON CONSTRUCTION CO.,        ","address":"242 BROOME STREET","lon":-73.9894,"lat":40.7179},{"zip":"10002","residential":"YES","permstatus":"ISSUED","filestatus":"INITIAL","filedate":"6/12/2015","issuedate":"6/12/2015","expdate":"6/11/2016","busname":"PRIDE BUILDERS LLC","address":"194 ORCHARD","lon":-73.9879,"lat":40.7222},{"zip":"10002","residential":"YES","permstatus":"ISSUED","filestatus":"RENEWAL","filedate":"6/13/2015","issuedate":"6/13/2015","expdate":"1/6/2016","busname":"GLOBAL GROUP INDUSTRIES C","address":"205 HENRY ST","lon":-73.9873,"lat":40.7138},{"zip":"10002","residential":"","permstatus":"ISSUED","filestatus":"RENEWAL","filedate":"6/12/2015","issuedate":"6/16/2015","expdate":"6/1/2016","busname":"RICHTER & RATNER CONTRACT","address":"139 ORCHARD STREET","lon":-73.9895,"lat":40.72},{"zip":"10002","residential":"YES","permstatus":"ISSUED","filestatus":"RENEWAL","filedate":"6/17/2015","issuedate":"6/17/2015","expdate":"6/16/2016","busname":"LEND LEASE (US) CONSTRUCT","address":"250 SOUTH STREET","lon":-73.9912,"lat":40.7104},{"zip":"10002","residential":"ISSUED","permstatus":"ISSUED","filestatus":"RENEWAL","filedate":"8/11/2015","issuedate":"8/11/2015","expdate":"8/12/2016","busname":"EMMA GROUP MANAGEMENT INC","address":"119 ORCHARD STREET","lon":-73.9898,"lat":40.7194},{"zip":"10002","residential":"ISSUED","permstatus":"ISSUED","filestatus":"RENEWAL","filedate":"8/14/2015","issuedate":"8/17/2015","expdate":"8/16/2016","busname":"ESSEX CROSSING BUILDERS L","address":"145 CLINTON STREET","lon":-73.9863,"lat":40.7167},{"zip":"10002","residential":"ISSUED","permstatus":"ISSUED","filestatus":"RENEWAL","filedate":"8/25/2015","issuedate":"8/25/2015","expdate":"8/24/2016","busname":"C.L. UNITED CONST SVC INC","address":"86 CANAL STREET","lon":-73.9938,"lat":40.7152},{"zip":"10002","residential":"ISSUED","permstatus":"ISSUED","filestatus":"RENEWAL","filedate":"8/7/2015","issuedate":"8/25/2015","expdate":"1/10/2016","busname":"CENTRAL CONSTRUCTION MANA","address":"179 SUFFOLK STREET","lon":-73.9847,"lat":40.7216},{"zip":"10002","residential":"ISSUED","permstatus":"ISSUED","filestatus":"RENEWAL","filedate":"8/27/2015","issuedate":"8/27/2015","expdate":"8/12/2016","busname":"FIRST CLASS MANAGEMENT CO","address":"324 GRAND STREET","lon":-73.9905,"lat":40.7172},{"zip":"10002","residential":"ISSUED","permstatus":"ISSUED","filestatus":"RENEWAL","filedate":"8/27/2015","issuedate":"8/27/2015","expdate":"8/26/2016","busname":"T.G. NICKEL & ASSOCIATES","address":"115 DELANCEY STREET","lon":-73.9881,"lat":40.7183},{"zip":"10002","residential":"ISSUED","permstatus":"ISSUED","filestatus":"RENEWAL","filedate":"8/31/2015","issuedate":"8/31/2015","expdate":"8/30/2016","busname":"FOUNDATIONS INTERIOR DESI","address":"204 FORSYTH STREET","lon":-73.9904,"lat":40.7227},{"zip":"10002","residential":"YES","permstatus":"ISSUED","filestatus":"RENEWAL","filedate":"9/24/2015","issuedate":"9/24/2015","expdate":"9/23/2016","busname":"ESSEX CROSSING BUILDERS L","address":"145 CLINTON STREET","lon":-73.9863,"lat":40.7167},{"zip":"10002","residential":"","permstatus":"ISSUED","filestatus":"RENEWAL","filedate":"9/28/2015","issuedate":"9/28/2015","expdate":"9/27/2016","busname":"TRITON CONSTRUCTION CO.,        ","address":"215 CHRYSTIE STREET","lon":-73.9916,"lat":40.7225},{"zip":"10002","residential":"","permstatus":"RE-ISSUED","filestatus":"RENEWAL","filedate":"9/29/2015","issuedate":"9/29/2015","expdate":"9/28/2016","busname":"KINGS STAR CONSTRUCTION C","address":"172 ELDRIDGE STREET","lon":-73.9907,"lat":40.7201},{"zip":"10002","residential":"ISSUED","permstatus":"ISSUED","filestatus":"RENEWAL","filedate":"10/21/2015","issuedate":"10/21/2015","expdate":"10/20/2016","busname":"HUA YANG INC","address":"89 BOWERY","lon":-73.9952,"lat":40.7169}]
